STATION_CODE,State,District,Station_Name,LAT,LON,PREMONSOON_2013,POSTMONSOON_2013,PREMONSOON_2014,POSTMONSOON_2014,PREMONSOON_2015,POSTMONSOON_2015,PREMONSOON_2016,POSTMONSOON_2016,PREMONSOON_2017,POSTMONSOON_2017,PREMONSOON_2018,POSTMONSOON_2018,PREMONSOON_2019,POSTMONSOON_2019,PREMONSOON_2020,POSTMONSOON_2020,PREMONSOON_2021,POSTMONSOON_2021,PREMONSOON_2022,POSTMONSOON_2022,RECHARGE_MCM_2013,EXTRACTION_MCM_2013,AVAILABILITY_MCM_2013,STAGE_OF_EXTRACTION_PCT_2013,RECHARGE_MCM_2014,EXTRACTION_MCM_2014,AVAILABILITY_MCM_2014,STAGE_OF_EXTRACTION_PCT_2014,RECHARGE_MCM_2015,EXTRACTION_MCM_2015,AVAILABILITY_MCM_2015,STAGE_OF_EXTRACTION_PCT_2015,RECHARGE_MCM_2016,EXTRACTION_MCM_2016,AVAILABILITY_MCM_2016,STAGE_OF_EXTRACTION_PCT_2016,RECHARGE_MCM_2017,EXTRACTION_MCM_2017,AVAILABILITY_MCM_2017,STAGE_OF_EXTRACTION_PCT_2017,RECHARGE_MCM_2018,EXTRACTION_MCM_2018,AVAILABILITY_MCM_2018,STAGE_OF_EXTRACTION_PCT_2018,RECHARGE_MCM_2019,EXTRACTION_MCM_2019,AVAILABILITY_MCM_2019,STAGE_OF_EXTRACTION_PCT_2019,RECHARGE_MCM_2020,EXTRACTION_MCM_2020,AVAILABILITY_MCM_2020,STAGE_OF_EXTRACTION_PCT_2020,RECHARGE_MCM_2021,EXTRACTION_MCM_2021,AVAILABILITY_MCM_2021,STAGE_OF_EXTRACTION_PCT_2021,RECHARGE_MCM_2022,EXTRACTION_MCM_2022,AVAILABILITY_MCM_2022,STAGE_OF_EXTRACTION_PCT_2022,RECHARGE_MCM_2023,EXTRACTION_MCM_2023,AVAILABILITY_MCM_2023,STAGE_OF_EXTRACTION_PCT_2023,RECHARGE_MCM_2024,EXTRACTION_MCM_2024,AVAILABILITY_MCM_2024,STAGE_OF_EXTRACTION_PCT_2024,RECHARGE_MCM_2025,EXTRACTION_MCM_2025,AVAILABILITY_MCM_2025,STAGE_OF_EXTRACTION_PCT_2025,PREMONSOON_2023,POSTMONSOON_2023,PREMONSOON_2024,POSTMONSOON_2024,PREMONSOON_2025,POSTMONSOON_2025
25191,ANDHRA PRADESH,ANANTAPUR,ATMAKUR,14.65,77.36,17.2,16.5,18.1,17.5,16.8,16.2,15.8,15.5,15.1,14.9,14.5,13.8,13.2,12.5,12.1,11.5,11.2,10.8,10.5,10.1,1850,1620,230,88,1853,1624,229,88,1856,1627,229,88,1859,1631,228,88,1862,1634,228,88,1865,1638,227,88,1868,1641,227,88,1871,1645,226,88,1874,1648,226,88,1877,1652,225,88,33760,13550,20210,40,34100,13800,20300,40,34500,14000,20500,41,10.2,9.8,9.9,9.5,9.6,9.2
25192,ANDHRA PRADESH,ANANTAPUR,KADIRI,14.11,78.16,22.5,21.8,23.2,22.5,21.9,21.2,20.8,20.1,19.8,19.2,18.9,18.1,17.5,16.8,16.5,15.9,15.5,15.1,14.8,14.5,1850,1620,230,88,1853,1624,229,88,1856,1627,229,88,1859,1631,228,88,1862,1634,228,88,1865,1638,227,88,1868,1641,227,88,1871,1645,226,88,1874,1648,226,88,1877,1652,225,88,33760,13550,20210,40,34100,13800,20300,40,34500,14000,20500,41,14.2,13.9,13.9,13.6,13.6,13.3
25193,ANDHRA PRADESH,CHITTOOR,Punganuru,13.36,78.57,9.8,9.5,10.2,10.1,9.9,9.5,9.2,9.1,8.9,8.76,8.5,8.1,7.8,7.5,7.2,6.9,6.6,6.3,6.1,5.9,2145,1850,295,86,2143,1848,295,86,2141,1846,295,86,2139,1844,295,86,2137,1842,295,86,2135,1840,295,87,2133,1838,295,87,2131,1836,295,87,2129,1834,295,87,2127,1832,295,87,33760,13550,20210,40,34100,13800,20300,40,34500,14000,20500,41,5.7,5.5,5.5,5.3,5.3,5.1
25194,ANDHRA PRADESH,CHITTOOR,MADANAPALLE,13.55,78.5,15.2,14.8,15.8,15.5,14.9,14.2,13.8,13.1,12.8,12.2,11.9,11.1,10.5,9.8,9.5,8.9,8.5,8.1,7.8,7.5,2145,1850,295,86,2143,1848,295,86,2141,1846,295,86,2139,1844,295,86,2137,1842,295,86,2135,1840,295,87,2133,1838,295,87,2131,1836,295,87,2129,1834,295,87,2127,1832,295,87,33760,13550,20210,40,34100,13800,20300,40,34500,14000,20500,41,7.2,6.9,6.9,6.6,6.6,6.3
25195,ANDHRA PRADESH,GUNTUR,PEDANANDIPADU,16.07,80.24,5.3,5.1,5.5,5.4,5.2,4.9,4.7,4.5,4.4,4.33,4.1,3.8,3.5,3.2,3.1,2.9,2.7,2.5,2.3,2.1,3250,2850,400,88,3264,2874,390,88,3278,2898,380,88,3292,2922,370,89,3306,2946,360,89,3320,2964,356,89,3334,2982,352,89,3348,3000,348,90,3362,3018,344,90,3376,3036,340,90,33760,13550,20210,40,34100,13800,20300,40,34500,14000,20500,41,1.9,1.7,1.7,1.5,1.5,1.3
25196,ANDHRA PRADESH,KRISHNA,CHALLAPALLI,16.12,80.93,2.7,2.5,2.9,2.8,2.6,2.4,2.3,2.2,2.18,2.15,2.1,1.9,1.8,1.7,1.6,1.5,1.4,1.3,1.2,1.1,4125,3650,475,88,4132,3661,471,89,4139,3673,466,89,4146,3684,462,89,4153,3695,458,89,4160,3706,454,89,4167,3717,450,89,4174,3728,446,89,4181,3739,442,90,4188,3750,438,90,33760,13550,20210,40,34100,13800,20300,40,34500,14000,20500,41,1.0,0.9,0.9,0.8,0.8,0.7
25197,ANDHRA PRADESH,VISAKHAPATNAM,ANAKAPALLE,17.68,83.01,7.5,7.2,7.9,7.7,7.4,7.1,6.8,6.6,6.4,6.3,6.1,5.8,5.5,5.2,5.1,4.9,4.7,4.5,4.3,4.1,2950,1850,1100,63,2960,1865,1095,63,2970,1880,1090,63,2980,1895,1085,64,2990,1910,1080,64,3000,1925,1075,64,3010,1940,1070,64,3020,1955,1065,65,3030,1970,1060,65,3040,1985,1055,65,33760,13550,20210,40,34100,13800,20300,40,34500,14000,20500,41,3.9,3.7,3.7,3.5,3.5,3.3
25198,TELANGANA,HYDERABAD,Nampally,17.39,78.46,22.1,21.5,22.8,22.4,21.9,21.2,20.5,19.8,19.2,18.92,18.5,18.1,17.8,17.5,17.2,16.9,16.6,16.3,16.1,15.9,425,385,40,91,429,389,40,91,432,392,40,91,436,396,40,91,439,399,40,91,443,404,39,91,446,408,38,91,450,412,38,92,453,417,36,92,457,421,36,92,15050,9180,5870,61,15200,9300,5900,61,15400,9500,5900,62,15.7,15.5,15.5,15.3,15.3,15.1
25199,TELANGANA,HYDERABAD,SECUNDERABAD,17.44,78.5,19.8,19.2,20.5,20.1,19.5,18.8,18.2,17.5,17.1,16.8,16.5,16.1,15.8,15.5,15.2,14.9,14.6,14.3,14.1,13.9,425,385,40,91,429,389,40,91,432,392,40,91,436,396,40,91,439,399,40,91,443,404,39,91,446,408,38,91,450,412,38,92,453,417,36,92,457,421,36,92,15050,9180,5870,61,15200,9300,5900,61,15400,9500,5900,62,13.7,13.5,13.5,13.3,13.3,13.1
25200,TELANGANA,KARIMNAGAR,Huzurabad,18.2,79.42,9.2,8.9,9.6,9.4,9.1,8.7,8.3,8.1,7.8,7.65,7.5,7.1,6.8,6.5,6.2,5.9,5.6,5.3,5.1,4.9,2345,1950,395,83,2356,1966,390,83,2367,1977,390,83,2378,1988,390,84,2389,1998,391,84,2400,2009,391,84,2411,2019,392,84,2422,2030,392,84,2433,2040,393,84,2444,2051,393,84,15050,9180,5870,61,15200,9300,5900,61,15400,9500,5900,62,4.7,4.5,4.5,4.3,4.3,4.1
25201,TELANGANA,NALGONDA,MIRYALGUDA,16.87,79.58,13.5,13.2,14.1,13.8,13.4,12.9,12.5,12.1,11.7,11.42,11.1,10.8,10.5,10.2,9.9,9.6,9.3,9.1,8.8,8.6,2850,2515,335,88,2867,2536,331,88,2883,2556,327,89,2900,2576,324,89,2916,2597,319,89,2933,2617,316,89,2949,2637,312,89,2966,2657,309,90,2982,2678,304,90,2999,2698,301,90,15050,9180,5870,61,15200,9300,5900,61,15400,9500,5900,62,8.4,8.2,8.2,8.0,8.0,7.8
25202,TELANGANA,WARANGAL,Narsampet,17.92,79.89,10.4,10.1,10.9,10.6,10.3,9.8,9.4,9.1,8.8,8.6,8.5,8.1,7.8,7.5,7.2,6.9,6.6,6.3,6.1,5.9,2600,2100,500,81,2610,2115,495,81,2620,2130,490,81,2630,2145,485,82,2640,2160,480,82,2650,2175,475,82,2660,2190,470,82,2670,2205,465,83,2680,2220,460,83,2690,2235,455,83,15050,9180,5870,61,15200,9300,5900,61,15400,9500,5900,62,5.7,5.5,5.5,5.3,5.3,5.1
25203,TAMIL NADU,CHENNAI,Guindy,13.01,80.21,7.4,7.1,7.8,7.6,7.2,6.8,6.4,6.1,5.9,5.88,5.5,5.1,4.8,4.5,4.2,3.9,3.6,3.3,3.1,2.9,250,230,20,92,252,232,20,92,254,234,20,92,256,236,20,92,258,238,20,92,260,240,20,92,262,242,20,92,264,244,20,92,266,246,20,92,268,248,20,93,22240,16680,5560,75,22500,16800,5700,75,22800,17000,5800,75,2.7,2.5,2.5,2.3,2.3,2.1
25204,TAMIL NADU,CHENNAI,TRIPLICANE,13.06,80.28,6.5,6.2,6.9,6.8,6.6,6.2,5.9,5.5,5.2,4.9,4.7,4.3,4.1,3.8,3.5,3.2,2.9,2.6,2.4,2.2,250,230,20,92,252,232,20,92,254,234,20,92,256,236,20,92,258,238,20,92,260,240,20,92,262,242,20,92,264,244,20,92,266,246,20,92,268,248,20,93,22240,16680,5560,75,22500,16800,5700,75,22800,17000,5800,75,2.0,1.8,1.8,1.6,1.6,1.4
25205,TAMIL NADU,COIMBATORE,Sulur,11.03,77.12,25.8,25.1,26.5,26.1,25.4,24.6,23.9,23.1,22.8,22.5,22.1,21.8,21.5,21.2,20.9,20.6,20.3,20.1,19.8,19.6,1800,1700,100,94,1805,1708,97,95,1810,1716,94,95,1815,1724,91,95,1820,1732,88,95,1825,1740,85,95,1830,1748,82,96,1835,1756,79,96,1840,1764,76,96,1845,1772,73,96,22240,16680,5560,75,22500,16800,5700,75,22800,17000,5800,75,19.4,19.2,19.2,19.0,19.0,18.8
25206,TAMIL NADU,COIMBATORE,POLLACHI,10.66,77.01,30.1,29.5,30.8,30.2,29.8,29.1,28.5,28.1,27.8,27.5,27.1,26.8,26.5,26.2,25.9,25.6,25.3,25.1,24.8,24.6,1800,1700,100,94,1805,1708,97,95,1810,1716,94,95,1815,1724,91,95,1820,1732,88,95,1825,1740,85,95,1830,1748,82,96,1835,1756,79,96,1840,1764,76,96,1845,1772,73,96,22240,16680,5560,75,22500,16800,5700,75,22800,17000,5800,75,24.4,24.2,24.2,24.0,24.0,23.8
25207,TAMIL NADU,MADURAI,Melur,9.98,78.34,8.5,8.2,8.9,8.7,8.4,8.1,7.8,7.5,7.2,6.95,6.8,6.5,6.2,5.9,5.6,5.3,5.1,4.8,4.6,4.4,1200,900,300,75,1210,910,300,75,1220,920,300,75,1230,930,300,76,1240,940,300,76,1250,950,300,76,1260,960,300,76,1270,970,300,76,1280,980,300,77,1290,990,300,77,22240,16680,5560,75,22500,16800,5700,75,22800,17000,5800,75,4.2,4.0,4.0,3.8,3.8,3.6
25208,TAMIL NADU,SALEM,Omalur,11.73,78.05,16.1,15.5,16.8,16.4,15.9,15.3,14.8,14.2,13.8,13.5,13.1,12.8,12.5,12.2,11.9,11.6,11.3,11.1,10.8,10.6,1500,1300,200,87,1510,1315,195,87,1520,1330,190,88,1530,1345,185,88,1540,1360,180,88,1550,1375,175,89,1560,1390,170,89,1570,1405,165,89,1580,1420,160,90,1590,1435,155,90,22240,16680,5560,75,22500,16800,5700,75,22800,17000,5800,75,10.4,10.2,10.2,10.0,10.0,9.8
25209,KARNATAKA,BENGALURU URBAN,Anekal,12.7,77.7,40.1,39.2,41.5,40.8,39.9,38.8,37.9,37.1,36.5,35.8,35.2,34.8,34.5,34.2,33.9,33.6,33.3,33.1,32.8,32.6,800,1100,-300,138,805,1110,-305,138,810,1120,-310,138,815,1130,-315,139,820,1140,-320,139,825,1150,-325,139,830,1160,-330,139,835,1170,-335,140,840,1180,-340,140,845,1190,-345,141,17500,11990,5510,68,17700,12100,5600,68,17900,12300,5600,69,32.4,32.2,32.2,32.0,32.0,31.8
25210,KARNATAKA,BENGALURU URBAN,YELAHANKA,13.1,77.6,35.8,35.1,36.5,36.1,35.5,34.8,34.2,33.5,33.1,32.8,32.5,32.1,31.8,31.5,31.2,30.9,30.6,30.3,30.1,29.9,800,1100,-300,138,805,1110,-305,138,810,1120,-310,138,815,1130,-315,139,820,1140,-320,139,825,1150,-325,139,830,1160,-330,139,835,1170,-335,140,840,1180,-340,140,845,1190,-345,141,17500,11990,5510,68,17700,12100,5600,68,17900,12300,5600,69,29.7,29.5,29.5,29.3,29.3,29.1
25211,KARNATAKA,MYSURU,Hunsur,12.31,76.29,17.1,16.5,17.8,17.4,16.9,16.2,15.7,15.1,14.6,14.2,13.9,13.5,13.2,12.9,12.6,12.3,12.1,11.8,11.6,11.4,1150,850,300,74,1155,858,297,74,1160,866,294,75,1165,874,291,75,1170,882,288,75,1175,890,285,76,1180,898,282,76,1185,906,279,76,1190,914,276,77,1195,922,273,77,17500,11990,5510,68,17700,12100,5600,68,17900,12300,5600,69,11.2,11.0,11.0,10.8,10.8,10.6
25212,KARNATAKA,MYSURU,NANJANGUD,12.12,76.68,19.5,18.9,20.1,19.8,19.2,18.5,18.1,17.5,17.1,16.8,16.5,16.1,15.8,15.5,15.2,14.9,14.6,14.3,14.1,13.9,1150,850,300,74,1155,858,297,74,1160,866,294,75,1165,874,291,75,1170,882,288,75,1175,890,285,76,1180,898,282,76,1185,906,279,76,1190,914,276,77,1195,922,273,77,17500,11990,5510,68,17700,12100,5600,68,17900,12300,5600,69,13.7,13.5,13.5,13.3,13.3,13.1
25213,KARNATAKA,UDUPI,Karkala,13.22,74.99,12.5,12.1,13.1,12.8,12.4,11.9,11.5,11.1,10.8,10.5,10.2,9.8,9.5,9.2,8.9,8.6,8.3,8.1,7.8,7.6,950,450,500,47,955,455,500,48,960,460,500,48,965,465,500,48,970,470,500,48,975,475,500,49,980,480,500,49,985,485,500,49,990,490,500,49,995,495,500,50,17500,11990,5510,68,17700,12100,5600,68,17900,12300,5600,69,7.4,7.2,7.2,7.0,7.0,6.8
25214,MAHARASHTRA,PUNE,Khed,18.73,73.86,10.9,10.5,11.4,11.1,10.7,10.2,9.8,9.5,9.3,9.1,8.9,8.5,8.2,7.9,7.6,7.3,7.1,6.8,6.6,6.4,2400,1500,900,63,2410,1510,900,63,2420,1520,900,63,2430,1530,900,63,2440,1540,900,63,2450,1550,900,63,2460,1560,900,63,2470,1570,900,64,2480,1580,900,64,2490,1590,900,64,32890,20560,12330,63,33200,20800,12400,63,33500,21000,12500,63,6.2,6.0,6.0,5.8,5.8,5.6
25215,MAHARASHTRA,PUNE,BARAMATI,18.15,74.58,12.8,12.5,13.2,12.9,12.6,12.1,11.8,11.5,11.2,10.9,10.7,10.3,10.1,9.8,9.5,9.2,8.9,8.6,8.4,8.2,2400,1500,900,63,2410,1510,900,63,2420,1520,900,63,2430,1530,900,63,2440,1540,900,63,2450,1550,900,63,2460,1560,900,63,2470,1570,900,64,2480,1580,900,64,2490,1590,900,64,32890,20560,12330,63,33200,20800,12400,63,33500,21000,12500,63,8.0,7.8,7.8,7.6,7.6,7.4
25216,MAHARASHTRA,MUMBAI,Kurla,19.08,72.88,4.3,4.1,4.6,4.4,4.2,3.9,3.7,3.6,3.5,3.45,3.2,2.9,2.7,2.5,2.3,2.1,1.9,1.7,1.5,1.3,400,250,150,63,402,252,150,63,404,254,150,63,406,256,150,63,408,258,150,63,410,260,150,63,412,262,150,64,414,264,150,64,416,266,150,64,418,268,150,64,32890,20560,12330,63,33200,20800,12400,63,33500,21000,12500,63,1.1,0.9,0.9,0.7,0.7,0.5
25217,MAHARASHTRA,MUMBAI,ANDHERI,19.12,72.85,5.1,4.8,5.4,5.2,4.9,4.5,4.2,3.9,3.7,3.5,3.3,3.1,2.8,2.6,2.4,2.2,2.1,1.9,1.7,1.5,400,250,150,63,402,252,150,63,404,254,150,63,406,256,150,63,408,258,150,63,410,260,150,63,412,262,150,64,414,264,150,64,416,266,150,64,418,268,150,64,32890,20560,12330,63,33200,20800,12400,63,33500,21000,12500,63,1.3,1.1,1.1,0.9,0.9,0.7
25218,MAHARASHTRA,NAGPUR,Umred,20.85,79.33,9.1,8.8,9.5,9.3,9.0,8.6,8.2,7.9,7.7,7.5,7.3,7.1,6.8,6.5,6.2,5.9,5.6,5.3,5.1,4.9,1900,1100,800,58,1910,1110,800,58,1920,1120,800,58,1930,1130,800,59,1940,1140,800,59,1950,1150,800,59,1960,1160,800,59,1970,1170,800,59,1980,1180,800,60,1990,1190,800,60,32890,20560,12330,63,33200,20800,12400,63,33500,21000,12500,63,4.7,4.5,4.5,4.3,4.3,4.1
25219,GUJARAT,AHMEDABAD,Dholka,22.72,72.47,26.1,25.5,27.2,26.8,26.1,25.2,24.5,23.8,23.2,22.8,22.5,22.1,21.8,21.5,21.2,20.9,20.6,20.3,20.1,19.9,2050,1850,200,90,2060,1865,195,91,2070,1880,190,91,2080,1895,185,91,2090,1910,180,91,2100,1925,175,92,2110,1940,170,92,2120,1955,165,92,2130,1970,160,93,2140,1985,155,93,23150,15410,7740,67,23400,15600,7800,67,23600,15800,7800,67,19.7,19.5,19.5,19.3,19.3,19.1
25220,GUJARAT,AHMEDABAD,SANAND,22.99,72.38,30.5,29.9,31.1,30.8,30.2,29.5,29.1,28.5,28.1,27.8,27.5,27.1,26.8,26.5,26.2,25.9,25.6,25.3,25.1,24.9,2050,1850,200,90,2060,1865,195,91,2070,1880,190,91,2080,1895,185,91,2090,1910,180,91,2100,1925,175,92,2110,1940,170,92,2120,1955,165,92,2130,1970,160,93,2140,1985,155,93,23150,15410,7740,67,23400,15600,7800,67,23600,15800,7800,67,24.7,24.5,24.5,24.3,24.3,24.1
25221,GUJARAT,SURAT,Kamrej,21.28,72.96,19.5,18.9,20.3,19.9,19.4,18.7,18.1,17.6,17.2,16.9,16.5,16.1,15.8,15.5,15.2,14.9,14.6,14.3,14.1,13.9,1800,1500,300,83,1810,1515,295,84,1820,1530,290,84,1830,1545,285,84,1840,1560,280,85,1850,1575,275,85,1860,1590,270,85,1870,1605,265,86,1880,1620,260,86,1890,1635,255,87,23150,15410,7740,67,23400,15600,7800,67,23600,15800,7800,67,13.7,13.5,13.5,13.3,13.3,13.1
25222,GUJARAT,VADODARA,SAVLI,22.56,73.22,15.8,15.5,16.2,15.9,15.6,15.1,14.8,14.5,14.2,13.9,13.7,13.3,13.1,12.8,12.5,12.2,11.9,11.6,11.4,11.2,1600,1200,400,75,1610,1210,400,75,1620,1220,400,75,1630,1230,400,75,1640,1240,400,76,1650,1250,400,76,1660,1260,400,76,1670,1270,400,76,1680,1280,400,76,1690,1290,400,76,23150,15410,7740,67,23400,15600,7800,67,23600,15800,7800,67,11.0,10.8,10.8,10.6,10.6,10.4
25223,RAJASTHAN,JAIPUR,Sanganer,26.82,75.78,46.1,45.2,47.5,46.8,45.9,44.8,43.9,43.1,42.5,41.8,41.2,40.8,40.5,40.2,39.9,39.6,39.3,39.1,38.8,38.6,1100,1500,-400,136,1110,1515,-405,136,1120,1530,-410,137,1130,1545,-415,137,1140,1560,-420,137,1150,1575,-425,137,1160,1590,-430,137,1170,1605,-435,137,1180,1620,-440,137,1190,1635,-445,137,14110,18880,-4770,134,14300,19000,-4700,133,14500,19200,-4700,132,38.4,38.2,38.2,38.0,38.0,37.8
25224,RAJASTHAN,JAIPUR,AMBER,26.99,75.86,50.1,49.5,50.8,50.2,49.8,49.1,48.5,48.1,47.8,47.5,47.1,46.8,46.5,46.2,45.9,45.6,45.3,45.1,44.8,44.6,1100,1500,-400,136,1110,1515,-405,136,1120,1530,-410,137,1130,1545,-415,137,1140,1560,-420,137,1150,1575,-425,137,1160,1590,-430,137,1170,1605,-435,137,1180,1620,-440,137,1190,1635,-445,137,14110,18880,-4770,134,14300,19000,-4700,133,14500,19200,-4700,132,44.4,44.2,44.2,44.0,44.0,43.8
25225,RAJASTHAN,JODHPUR,Luni,26.08,72.93,34.0,33.1,35.2,34.6,33.8,32.7,31.9,31.1,30.5,29.9,29.5,29.1,28.8,28.5,28.2,27.9,27.6,27.3,27.1,26.9,1300,1600,-300,123,1310,1615,-305,123,1320,1630,-310,123,1330,1645,-315,124,1340,1660,-320,124,1350,1675,-325,124,1360,1690,-330,124,1370,1705,-335,124,1380,1720,-340,125,1390,1735,-345,125,14110,18880,-4770,134,14300,19000,-4700,133,14500,19200,-4700,132,26.7,26.5,26.5,26.3,26.3,26.1
25226,RAJASTHAN,UDAIPUR,GIRWA,24.58,73.68,22.8,22.5,23.2,22.9,22.6,22.1,21.8,21.5,21.2,20.9,20.7,20.3,20.1,19.8,19.5,19.2,18.9,18.6,18.4,18.2,1450,1250,200,86,1460,1260,200,86,1470,1270,200,86,1480,1280,200,86,1490,1290,200,87,1500,1300,200,87,1510,1310,200,87,1520,1320,200,87,1530,1330,200,87,1540,1340,200,87,14110,18880,-4770,134,14300,19000,-4700,133,14500,19200,-4700,132,18.0,17.8,17.8,17.6,17.6,17.4
25227,UTTAR PRADESH,LUCKNOW,Bakshi Ka Talab,26.98,80.9,13.2,12.8,13.8,13.5,13.1,12.6,12.2,11.8,11.5,11.2,10.9,10.5,10.2,9.9,9.6,9.3,9.1,8.8,8.6,8.4,1400,1000,400,71,1410,1010,400,72,1420,1020,400,72,1430,1030,400,72,1440,1040,400,72,1450,1050,400,72,1460,1060,400,73,1470,1070,400,73,1480,1080,400,73,1490,1090,400,73,76450,54470,21980,71,77200,55000,22200,71,78000,55500,22500,71,8.2,8.0,8.0,7.8,7.8,7.6
25228,UTTAR PRADESH,LUCKNOW,MOHANLALGANJ,26.7,80.98,15.5,15.1,15.8,15.6,15.2,14.8,14.5,14.1,13.8,13.5,13.2,12.8,12.5,12.2,11.9,11.6,11.3,11.1,10.8,10.6,1400,1000,400,71,1410,1010,400,72,1420,1020,400,72,1430,1030,400,72,1440,1040,400,72,1450,1050,400,72,1460,1060,400,73,1470,1070,400,73,1480,1080,400,73,1490,1090,400,73,76450,54470,21980,71,77200,55000,22200,71,78000,55500,22500,71,10.4,10.2,10.2,10.0,10.0,9.8
25229,UTTAR PRADESH,AGRA,Fatehabad,27.02,78.18,29.1,28.5,30.2,29.7,29.0,28.1,27.4,26.8,26.2,25.8,25.5,25.1,24.8,24.5,24.2,23.9,23.6,23.3,23.1,22.9,2100,1900,200,90,2110,1915,195,91,2120,1930,190,91,2130,1945,185,91,2140,1960,180,92,2150,1975,175,92,2160,1990,170,92,2170,2005,165,92,2180,2020,160,93,2190,2035,155,93,76450,54470,21980,71,77200,55000,22200,71,78000,55500,22500,71,22.7,22.5,22.5,22.3,22.3,22.1
25230,UTTAR PRADESH,VARANASI,PINDRA,25.46,82.85,10.8,10.5,11.2,10.9,10.6,10.1,9.8,9.5,9.2,8.9,8.7,8.3,8.1,7.8,7.5,7.2,6.9,6.6,6.4,6.2,1300,800,500,62,1310,810,500,62,1320,820,500,62,1330,830,500,62,1340,840,500,63,1350,850,500,63,1360,860,500,63,1370,870,500,64,1380,880,500,64,1390,890,500,64,76450,54470,21980,71,77200,55000,22200,71,78000,55500,22500,71,6.0,5.8,5.8,5.6,5.6,5.4
25231,UTTAR PRADESH,KANPUR NAGAR,GHATAMPUR,26.16,80.17,18.5,18.1,18.8,18.6,18.2,17.8,17.5,17.1,16.8,16.5,16.2,15.8,15.5,15.2,14.9,14.6,14.3,14.1,13.8,13.6,1500,1100,400,73,1510,1110,400,74,1520,1120,400,74,1530,1130,400,74,1540,1140,400,74,1550,1150,400,74,1560,1160,400,74,1570,1170,400,75,1580,1180,400,75,1590,1190,400,75,76450,54470,21980,71,77200,55000,22200,71,78000,55500,22500,71,13.4,13.2,13.2,13.0,13.0,12.8
25232,WEST BENGAL,KOLKATA,Alipore,22.53,88.33,6.8,6.5,7.1,7.0,6.8,6.5,6.3,6.1,6.0,5.9,5.7,5.3,5.1,4.8,4.5,4.2,3.9,3.6,3.4,3.2,350,150,200,43,352,152,200,43,354,154,200,44,356,156,200,44,358,158,200,44,360,160,200,44,362,162,200,45,364,164,200,45,366,166,200,45,368,168,200,46,31340,13840,17500,44,31600,14000,17600,44,31900,14200,17700,45,3.0,2.8,2.8,2.6,2.6,2.4
25233,WEST BENGAL,KOLKATA,BEHALA,22.5,88.31,7.2,6.9,7.5,7.3,7.1,6.8,6.5,6.2,6.1,5.9,5.8,5.5,5.2,4.9,4.6,4.3,4.1,3.8,3.6,3.4,350,150,200,43,352,152,200,43,354,154,200,44,356,156,200,44,358,158,200,44,360,160,200,44,362,162,200,45,364,164,200,45,366,166,200,45,368,168,200,46,31340,13840,17500,44,31600,14000,17600,44,31900,14200,17700,45,3.2,3.0,3.0,2.8,2.8,2.6
25234,WEST BENGAL,HOWRAH,BALLY,22.65,88.34,5.8,5.5,6.1,5.9,5.7,5.3,5.1,4.8,4.6,4.4,4.2,3.9,3.7,3.5,3.3,3.1,2.9,2.7,2.5,2.3,800,300,500,38,805,305,500,38,810,310,500,38,815,315,500,39,820,320,500,39,825,325,500,39,830,330,500,40,835,335,500,40,840,340,500,40,845,345,500,41,31340,13840,17500,44,31600,14000,17600,44,31900,14200,17700,45,2.1,1.9,1.9,1.7,1.7,1.5
25235,WEST BENGAL,NADIA,KRISHNANAGAR,23.4,88.5,8.1,7.8,8.4,8.2,7.9,7.5,7.2,6.9,6.7,6.5,6.3,6.1,5.8,5.5,5.2,4.9,4.6,4.3,4.1,3.9,1200,500,700,42,1205,505,700,42,1210,510,700,42,1215,515,700,42,1220,520,700,43,1225,525,700,43,1230,530,700,43,1235,535,700,43,1240,540,700,44,1245,545,700,44,31340,13840,17500,44,31600,14000,17600,44,31900,14200,17700,45,3.7,3.5,3.5,3.3,3.3,3.1
25236,BIHAR,PATNA,Danapur,25.62,85.05,8.4,8.1,8.8,8.6,8.3,8.0,7.7,7.5,7.3,7.1,6.9,6.5,6.2,5.9,5.6,5.3,5.1,4.8,4.6,4.4,1250,550,700,44,1255,555,700,44,1260,560,700,44,1265,565,700,45,1270,570,700,45,1275,575,700,45,1280,580,700,45,1285,585,700,46,1290,590,700,46,1295,595,700,46,33890,14780,19110,44,34200,14900,19300,44,34500,15100,19400,44,4.2,4.0,4.0,3.8,3.8,3.6
25237,BIHAR,PATNA,PATNA SADAR,25.6,85.1,9.2,8.9,9.5,9.3,9.1,8.8,8.5,8.2,7.9,7.6,7.4,7.1,6.8,6.5,6.2,5.9,5.6,5.3,5.1,4.9,1250,550,700,44,1255,555,700,44,1260,560,700,44,1265,565,700,45,1270,570,700,45,1275,575,700,45,1280,580,700,45,1285,585,700,46,1290,590,700,46,1295,595,700,46,33890,14780,19110,44,34200,14900,19300,44,34500,15100,19400,44,4.7,4.5,4.5,4.3,4.3,4.1
25238,BIHAR,GAYA,GAYA,24.79,85.0,9.8,9.5,10.2,9.9,9.6,9.1,8.8,8.5,8.2,7.9,7.7,7.3,7.1,6.8,6.5,6.2,5.9,5.6,5.4,5.2,1500,700,800,47,1505,705,800,47,1510,710,800,47,1515,715,800,47,1520,720,800,47,1525,725,800,47,1530,730,800,48,1535,735,800,48,1540,740,800,48,1545,745,800,48,33890,14780,19110,44,34200,14900,19300,44,34500,15100,19400,44,5.0,4.8,4.8,4.6,4.6,4.4
25239,BIHAR,MUZAFFARPUR,MUSHAHARI,26.1,85.4,7.8,7.5,8.1,7.9,7.6,7.2,6.9,6.6,6.4,6.2,6.1,5.8,5.5,5.2,4.9,4.6,4.3,4.1,3.8,3.6,1100,400,700,36,1105,405,700,37,1110,410,700,37,1115,415,700,37,1120,420,700,38,1125,425,700,38,1130,430,700,38,1135,435,700,38,1140,440,700,39,1145,445,700,39,33890,14780,19110,44,34200,14900,19300,44,34500,15100,19400,44,3.4,3.2,3.2,3.0,3.0,2.8
25240,ODISHA,BHUBANESWAR,Chandaka,20.33,85.74,9.8,9.5,10.2,10.0,9.7,9.3,9.0,8.7,8.5,8.3,8.1,7.8,7.5,7.2,6.9,6.6,6.3,6.1,5.8,5.6,700,300,400,43,705,305,400,43,710,310,400,44,715,315,400,44,720,320,400,44,725,325,400,45,730,330,400,45,735,335,400,46,740,340,400,46,745,345,400,46,18780,7490,11290,40,19000,7600,11400,40,19200,7700,11500,40,5.4,5.2,5.2,5.0,5.0,4.8
25241,ODISHA,KHURDA,BHUBANESWAR,20.27,85.84,8.5,8.2,8.8,8.6,8.3,7.9,7.6,7.3,7.1,6.9,6.7,6.3,6.1,5.8,5.5,5.2,4.9,4.6,4.4,4.2,700,300,400,43,705,305,400,43,710,310,400,44,715,315,400,44,720,320,400,44,725,325,400,45,730,330,400,45,735,335,400,46,740,340,400,46,745,345,400,46,18780,7490,11290,40,19000,7600,11400,40,19200,7700,11500,40,4.0,3.8,3.8,3.6,3.6,3.4
25242,ODISHA,CUTTACK,CUTTACK,20.46,85.88,6.8,6.5,7.1,7.0,6.8,6.5,6.3,6.1,5.9,5.7,5.5,5.1,4.9,4.6,4.3,4.1,3.8,3.5,3.3,3.1,850,350,500,41,855,355,500,42,860,360,500,42,865,365,500,42,870,370,500,43,875,375,500,43,880,380,500,43,885,385,500,43,890,390,500,44,895,395,500,44,18780,7490,11290,40,19000,7600,11400,40,19200,7700,11500,40,2.9,2.7,2.7,2.5,2.5,2.3
25243,PUNJAB,AMRITSAR,Ajnala,31.84,74.76,22.8,22.1,23.5,23.1,22.5,21.8,21.2,20.7,20.3,19.9,19.5,19.1,18.8,18.5,18.2,17.9,17.6,17.3,17.1,16.9,800,1300,-500,163,805,1310,-505,163,810,1320,-510,163,815,1330,-515,163,820,1340,-520,163,825,1350,-525,164,830,1360,-530,164,835,1370,-535,164,840,1380,-540,164,845,1390,-545,164,24150,35980,-11830,149,24400,36300,-11900,149,24600,36700,-12100,149,16.7,16.5,16.5,16.3,16.3,16.1
25244,PUNJAB,AMRITSAR,AMRITSAR,31.63,74.87,25.1,24.5,25.8,25.2,24.8,24.1,23.5,23.1,22.8,22.5,22.1,21.8,21.5,21.2,20.9,20.6,20.3,20.1,19.8,19.6,800,1300,-500,163,805,1310,-505,163,810,1320,-510,163,815,1330,-515,163,820,1340,-520,163,825,1350,-525,164,830,1360,-530,164,835,1370,-535,164,840,1380,-540,164,845,1390,-545,164,24150,35980,-11830,149,24400,36300,-11900,149,24600,36700,-12100,149,19.4,19.2,19.2,19.0,19.0,18.8
25245,PUNJAB,LUDHIANA,LUDHIANA,30.9,75.85,32.8,32.1,33.5,33.1,32.5,31.8,31.2,30.7,30.3,29.9,29.5,29.1,28.8,28.5,28.2,27.9,27.6,27.3,27.1,26.9,1300,2000,-700,154,1310,2015,-705,154,1320,2030,-710,154,1330,2045,-715,154,1340,2060,-720,154,1350,2075,-725,154,1360,2090,-730,154,1370,2105,-735,154,1380,2120,-740,154,1390,2135,-745,154,24150,35980,-11830,149,24400,36300,-11900,149,24600,36700,-12100,149,26.7,26.5,26.5,26.3,26.3,26.1
25246,PUNJAB,JALANDHAR,JALANDHAR EAST,31.32,75.57,28.5,28.1,28.8,28.6,28.2,27.8,27.5,27.1,26.8,26.5,26.2,25.8,25.5,25.2,24.9,24.6,24.3,24.1,23.8,23.6,1100,1600,-500,145,1110,1615,-505,145,1120,1630,-510,146,1130,1645,-515,146,1140,1660,-520,146,1150,1675,-525,146,1160,1690,-530,146,1170,1705,-535,146,1180,1720,-540,146,1190,1735,-545,146,24150,35980,-11830,149,24400,36300,-11900,149,24600,36700,-12100,149,23.4,23.2,23.2,23.0,23.0,22.8
25247,HARYANA,GURUGRAM,Sohna,28.25,77.07,39.8,38.9,41.2,40.5,39.6,38.5,37.6,36.8,36.2,35.5,34.9,34.5,34.2,33.9,33.6,33.3,33.1,32.8,32.6,32.4,500,800,-300,160,505,810,-305,160,510,820,-310,161,515,830,-315,161,520,840,-320,162,525,850,-325,162,530,860,-330,162,535,870,-335,162,540,880,-340,163,545,890,-345,163,11130,15350,-4220,138,11200,15500,-4300,138,11300,15600,-4300,138,32.2,32.0,32.0,31.8,31.8,31.6
25248,HARYANA,GURUGRAM,GURGAON,28.46,77.03,42.1,41.5,42.8,42.2,41.8,41.1,40.5,40.1,39.8,39.5,39.1,38.8,38.5,38.2,37.9,37.6,37.3,37.1,36.8,36.6,500,800,-300,160,505,810,-305,160,510,820,-310,161,515,830,-315,161,520,840,-320,162,525,850,-325,162,530,860,-330,162,535,870,-335,162,540,880,-340,163,545,890,-345,163,11130,15350,-4220,138,11200,15500,-4300,138,11300,15600,-4300,138,36.4,36.2,36.2,36.0,36.0,35.8
25249,HARYANA,FARIDABAD,FARIDABAD,28.41,77.32,42.8,42.1,43.5,43.1,42.5,41.8,41.2,40.7,40.3,39.9,39.5,39.1,38.8,38.5,38.2,37.9,37.6,37.3,37.1,36.9,450,700,-250,156,455,710,-255,156,460,720,-260,157,465,730,-265,157,470,740,-270,157,475,750,-275,158,480,760,-280,158,485,770,-285,159,490,780,-290,159,495,790,-295,160,11130,15350,-4220,138,11200,15500,-4300,138,11300,15600,-4300,138,36.7,36.5,36.5,36.3,36.3,36.1
25250,HARYANA,PANIPAT,PANIPAT,29.39,76.97,35.5,35.1,35.8,35.6,35.2,34.8,34.5,34.1,33.8,33.5,33.2,32.8,32.5,32.2,31.9,31.6,31.3,31.1,30.8,30.6,600,900,-300,150,605,910,-305,150,610,920,-310,151,615,930,-315,151,620,940,-320,152,625,950,-325,152,630,960,-330,152,635,970,-335,153,640,980,-340,153,645,990,-345,153,11130,15350,-4220,138,11200,15500,-4300,138,11300,15600,-4300,138,30.4,30.2,30.2,30.0,30.0,29.8
25251,KERALA,THIRUVANANTHAPURAM,THIRUVANANTHAPURAM,8.52,76.93,5.5,5.1,5.8,5.6,5.2,4.8,4.5,4.1,3.8,3.5,3.2,2.8,2.5,2.2,1.9,1.6,1.3,1.1,0.8,0.6,1050,450,600,43,1055,455,600,43,1060,460,600,43,1065,465,600,44,1070,470,600,44,1075,475,600,44,1080,480,600,44,1085,485,600,45,1090,490,600,45,1095,495,600,45,5950,2970,2980,50,6010,3000,3010,50,6070,3030,3040,50,0.4,0.2,0.2,0.0,0.0,-0.2
25252,KERALA,ERNAKULAM,KOCHI,9.93,76.26,2.8,2.5,3.1,2.9,2.6,2.2,1.9,1.6,1.4,1.2,1.1,0.8,0.5,0.2,-0.1,-0.4,-0.7,-0.9,-1.2,-1.4,1300,600,700,46,1305,605,700,46,1310,610,700,47,1315,615,700,47,1320,620,700,47,1325,625,700,47,1330,630,700,47,1335,635,700,48,1340,640,700,48,1345,645,700,48,5950,2970,2980,50,6010,3000,3010,50,6070,3030,3040,50,-1.6,-1.8,-1.8,-2.0,-2.0,-2.2
25253,KERALA,KOZHIKODE,KOZHIKODE,11.25,75.78,3.1,2.8,3.4,3.2,2.9,2.5,2.2,1.9,1.7,1.5,1.3,1.1,0.8,0.5,0.2,-0.1,-0.4,-0.7,-0.9,-1.2,1100,500,600,45,1105,505,600,46,1110,510,600,46,1115,515,600,46,1120,520,600,46,1125,525,600,47,1130,530,600,47,1135,535,600,47,1140,540,600,47,1145,545,600,48,5950,2970,2980,50,6010,3000,3010,50,6070,3030,3040,50,-1.4,-1.6,-1.6,-1.8,-1.8,-2.0
25254,MADHYA PRADESH,BHOPAL,BERASIA,23.63,77.43,15.8,15.5,16.2,15.9,15.6,15.1,14.8,14.5,14.2,13.9,13.7,13.3,13.1,12.8,12.5,12.2,11.9,11.6,11.4,11.2,1200,600,600,50,1210,610,600,50,1220,620,600,51,1230,630,600,51,1240,640,600,52,1250,650,600,52,1260,660,600,52,1270,670,600,53,1280,680,600,53,1290,690,600,53,37150,20170,16980,54,37500,20400,17100,54,37900,20600,17300,54,11.0,10.8,10.8,10.6,10.6,10.4
25255,MADHYA PRADESH,INDORE,INDORE,22.72,75.86,28.5,28.1,28.8,28.6,28.2,27.8,27.5,27.1,26.8,26.5,26.2,25.8,25.5,25.2,24.9,24.6,24.3,24.1,23.8,23.6,1500,1000,500,67,1510,1010,500,67,1520,1020,500,67,1530,1030,500,67,1540,1040,500,68,1550,1050,500,68,1560,1060,500,68,1570,1070,500,68,1580,1080,500,68,1590,1090,500,69,37150,20170,16980,54,37500,20400,17100,54,37900,20600,17300,54,23.4,23.2,23.2,23.0,23.0,22.8
25256,MADHYA PRADESH,JABALPUR,JABALPUR,23.18,79.98,12.1,11.8,12.4,12.2,11.9,11.5,11.2,10.9,10.7,10.5,10.3,10.1,9.8,9.5,9.2,8.9,8.6,8.3,8.1,7.9,1800,900,900,50,1810,910,900,50,1820,920,900,51,1830,930,900,51,1840,940,900,51,1850,950,900,51,1860,960,900,52,1870,970,900,52,1880,980,900,52,1890,990,900,52,37150,20170,16980,54,37500,20400,17100,54,37900,20600,17300,54,7.7,7.5,7.5,7.3,7.3,7.1
25257,ASSAM,KAMRUP METROPOLITAN,GUWAHATI,26.14,91.73,4.5,4.2,4.8,4.6,4.3,3.9,3.6,3.3,3.1,2.9,2.7,2.3,2.1,1.8,1.5,1.2,0.9,0.6,0.4,0.2,900,200,700,22,905,202,703,22,910,204,706,22,915,206,709,22,920,208,712,23,925,210,715,23,930,212,718,23,935,214,721,23,940,216,724,23,945,218,727,23,28670,2728,25942,10,28950,2755,26195,10,29240,2783,26457,10,0.0,-0.2,-0.2,-0.4,-0.4,-0.6
25258,ASSAM,DIBRUGARH,DIBRUGARH,27.47,94.91,2.1,1.8,2.4,2.2,1.9,1.5,1.2,0.9,0.7,0.5,0.3,0.1,-0.2,-0.5,-0.8,-1.1,-1.4,-1.7,-1.9,-2.2,1100,250,850,23,1105,252,853,23,1110,254,856,23,1115,256,859,23,1120,258,862,23,1125,260,865,23,1130,262,868,23,1135,264,871,23,1140,266,874,23,1145,268,877,23,28670,2728,25942,10,28950,2755,26195,10,29240,2783,26457,10,-2.4,-2.6,-2.6,-2.8,-2.8,-3.0
25259,CHHATTISGARH,RAIPUR,RAIPUR,21.25,81.63,8.8,8.5,9.1,8.9,8.6,8.2,7.9,7.6,7.4,7.2,7.1,6.8,6.5,6.2,5.9,5.6,5.3,5.1,4.8,4.6,2200,900,1300,41,2210,910,1300,41,2220,920,1300,41,2230,930,1300,42,2240,940,1300,42,2250,950,1300,42,2260,960,1300,42,2270,970,1300,43,2280,980,1300,43,2290,990,1300,43,11570,4695,6875,41,11680,4742,6938,41,11790,4789,7001,41,4.4,4.2,4.2,4.0,4.0,3.8
25260,CHHATTISGARH,BILASPUR,BILASPUR,22.08,82.14,7.5,7.2,7.8,7.6,7.3,6.9,6.6,6.3,6.1,5.9,5.7,5.3,5.1,4.8,4.5,4.2,3.9,3.6,3.4,3.2,1500,500,1000,33,1510,505,1005,33,1520,510,1010,34,1530,515,1015,34,1540,520,1020,34,1550,525,1025,34,1560,530,1030,34,1570,535,1035,34,1580,540,1040,34,1590,545,1045,34,11570,4695,6875,41,11680,4742,6938,41,11790,4789,7001,41,3.0,2.8,2.8,2.6,2.6,2.4
25261,JHARKHAND,RANCHI,RANCHI,23.34,85.31,10.1,9.8,10.4,10.2,9.9,9.5,9.2,8.9,8.7,8.5,8.3,8.1,7.8,7.5,7.2,6.9,6.6,6.3,6.1,5.9,800,250,550,31,805,252,553,31,810,254,556,31,815,256,559,31,820,258,562,31,825,260,565,32,830,262,568,32,835,264,571,32,840,266,574,32,845,268,577,32,6210,1578,4632,25,6270,1594,4676,25,6330,1610,4720,25,5.7,5.5,5.5,5.3,5.3,5.1
25262,JHARKHAND,EAST SINGHBUM,JAMSHEDPUR,22.8,86.2,6.5,6.2,6.8,6.6,6.3,5.9,5.6,5.3,5.1,4.9,4.7,4.3,4.1,3.8,3.5,3.2,2.9,2.6,2.4,2.2,600,200,400,33,605,202,403,33,610,204,406,33,615,206,409,33,620,208,412,34,625,210,415,34,630,212,418,34,635,214,421,34,640,216,424,34,645,218,427,34,6210,1578,4632,25,6270,1594,4676,25,6330,1610,4720,25,2.0,1.8,1.8,1.6,1.6,1.4
25263,UTTARAKHAND,DEHRADUN,DEHRADUN,30.32,78.03,25.5,25.1,25.8,25.6,25.2,24.8,24.5,24.1,23.8,23.5,23.2,22.8,22.5,22.2,21.9,21.6,21.3,21.1,20.8,20.6,1100,600,500,55,1105,605,500,55,1110,610,500,55,1115,615,500,55,1120,620,500,55,1125,625,500,56,1130,630,500,56,1135,635,500,56,1140,640,500,56,1145,645,500,56,3045,1644,1401,54,3075,1660,1415,54,3105,1676,1429,54,20.4,20.2,20.2,20.0,20.0,19.8
25264,UTTARAKHAND,HARIDWAR,ROORKEE,29.85,77.89,12.8,12.5,13.1,12.9,12.6,12.2,11.9,11.6,11.4,11.2,11.1,10.8,10.5,10.2,9.9,9.6,9.3,9.1,8.8,8.6,800,500,300,63,805,505,300,63,810,510,300,63,815,515,300,63,820,520,300,63,825,525,300,63,830,530,300,64,835,535,300,64,840,540,300,64,845,545,300,65,3045,1644,1401,54,3075,1660,1415,54,3105,1676,1429,54,8.4,8.2,8.2,8.0,8.0,7.8
25265,HIMACHAL PRADESH,SHIMLA,SHIMLA,31.1,77.17,18.9,18.5,19.2,19.1,18.8,18.5,18.2,17.9,17.7,17.5,17.3,17.1,16.8,16.5,16.2,15.9,15.6,15.3,15.1,14.9,300,100,200,33,302,101,201,33,304,102,202,34,306,103,203,34,308,104,204,34,310,105,205,34,312,106,206,34,314,107,207,34,316,108,208,34,318,109,209,34,5060,3930,1130,78,5110,3970,1140,78,5160,4010,1150,78,14.7,14.5,14.5,14.3,14.3,14.1
25266,HIMACHAL PRADESH,KANGRA,DHARAMSALA,32.22,76.32,15.1,14.8,15.4,15.2,14.9,14.5,14.2,13.9,13.7,13.5,13.3,13.1,12.8,12.5,12.2,11.9,11.6,11.3,11.1,10.9,900,400,500,44,905,405,500,45,910,410,500,45,915,415,500,45,920,420,500,46,925,425,500,46,930,430,500,46,935,435,500,47,940,440,500,47,945,445,500,47,5060,3930,1130,78,5110,3970,1140,78,5160,4010,1150,78,10.7,10.5,10.5,10.3,10.3,10.1
25267,ANDHRA PRADESH,ANANTAPUR,GOOTY,15.12,77.63,25.1,24.5,25.8,25.2,24.8,24.1,23.5,23.1,22.8,22.5,22.1,21.8,21.5,21.2,20.9,20.6,20.3,20.1,19.8,19.6,1850,1620,230,88,1853,1624,229,88,1856,1627,229,88,1859,1631,228,88,1862,1634,228,88,1865,1638,227,88,1868,1641,227,88,1871,1645,226,88,1874,1648,226,88,1877,1652,225,88,33760,13550,20210,40,34100,13800,20300,40,34500,14000,20500,41,19.4,19.2,19.2,19.0,19.0,18.8
25268,ANDHRA PRADESH,GUNTUR,REPALLE,16.02,80.83,1.8,1.5,2.1,1.9,1.7,1.3,1.1,0.8,0.6,0.4,0.2,-0.1,-0.3,-0.5,-0.7,-0.9,-1.1,-1.3,-1.5,-1.7,3250,2850,400,88,3264,2874,390,88,3278,2898,380,88,3292,2922,370,89,3306,2946,360,89,3320,2964,356,89,3334,2982,352,89,3348,3000,348,90,3362,3018,344,90,3376,3036,340,90,33760,13550,20210,40,34100,13800,20300,40,34500,14000,20500,41,-1.9,-2.1,-2.1,-2.3,-2.3,-2.5
25269,TELANGANA,KHAMMAM,KOTHAGUDEM,17.55,80.62,8.2,7.9,8.5,8.3,8.1,7.8,7.5,7.2,6.9,6.6,6.4,6.1,5.8,5.5,5.2,4.9,4.6,4.3,4.1,3.9,1400,1000,400,71,1410,1010,400,72,1420,1020,400,72,1430,1030,400,72,1440,1040,400,72,1450,1050,400,72,1460,1060,400,73,1470,1070,400,73,1480,1080,400,73,1490,1090,400,73,15050,9180,5870,61,15200,9300,5900,61,15400,9500,5900,62,3.7,3.5,3.5,3.3,3.3,3.1
25270,TAMIL NADU,TIRUNELVELI,TIRUNELVELI,8.71,77.75,10.5,10.1,10.8,10.6,10.2,9.8,9.5,9.1,8.8,8.5,8.2,7.8,7.5,7.2,6.9,6.6,6.3,6.1,5.8,5.6,1300,950,350,73,1310,960,350,73,1320,970,350,73,1330,980,350,74,1340,990,350,74,1350,1000,350,74,1360,1010,350,74,1370,1020,350,74,1380,1030,350,75,1390,1040,350,75,22240,16680,5560,75,22500,16800,5700,75,22800,17000,5800,75,5.4,5.2,5.2,5.0,5.0,4.8
25271,KARNATAKA,CHITRADURGA,CHITRADURGA,14.22,76.4,32.1,31.5,32.8,32.2,31.8,31.1,30.5,30.1,29.8,29.5,29.1,28.8,28.5,28.2,27.9,27.6,27.3,27.1,26.8,26.6,1000,900,100,90,1005,905,100,90,1010,910,100,90,1015,915,100,90,1020,920,100,90,1025,925,100,90,1030,930,100,90,1035,935,100,90,1040,940,100,90,1045,945,100,90,17500,11990,5510,68,17700,12100,5600,68,17900,12300,5600,69,26.4,26.2,26.2,26.0,26.0,25.8
25272,MAHARASHTRA,SOLAPUR,SOLAPUR,17.68,75.9,14.8,14.5,15.1,14.9,14.6,14.2,13.9,13.6,13.3,13.1,12.8,12.5,12.2,11.9,11.6,11.3,11.1,10.8,10.6,10.4,1800,1400,400,78,1810,1410,400,78,1820,1420,400,78,1830,1430,400,78,1840,1440,400,78,1850,1450,400,78,1860,1460,400,78,1870,1470,400,79,1880,1480,400,79,1890,1490,400,79,32890,20560,12330,63,33200,20800,12400,63,33500,21000,12500,63,10.2,10.0,10.0,9.8,9.8,9.6
25273,RAJASTHAN,BIKANER,BIKANER,28.02,73.31,55.1,54.5,55.8,55.2,54.8,54.1,53.5,53.1,52.8,52.5,52.1,51.8,51.5,51.2,50.9,50.6,50.3,50.1,49.8,49.6,900,1200,-300,133,905,1210,-305,134,910,1220,-310,134,915,1230,-315,134,920,1240,-320,135,925,1250,-325,135,930,1260,-330,135,935,1270,-335,136,940,1280,-340,136,945,1290,-345,136,14110,18880,-4770,134,14300,19000,-4700,133,14500,19200,-4700,132,49.4,49.2,49.2,49.0,49.0,48.8
25274,UTTAR PRADESH,ALLAHABAD,ALLAHABAD,25.44,81.85,14.2,13.9,14.5,14.3,14.1,13.8,13.5,13.2,12.9,12.6,12.4,12.1,11.8,11.5,11.2,10.9,10.6,10.3,10.1,9.9,1600,1100,500,69,1610,1110,500,69,1620,1120,500,69,1630,1130,500,69,1640,1140,500,70,1650,1150,500,70,1660,1160,500,70,1670,1170,500,70,1680,1180,500,70,1690,1190,500,70,76450,54470,21980,71,77200,55000,22200,71,78000,55500,22500,71,9.7,9.5,9.5,9.3,9.3,9.1
25275,WEST BENGAL,BANKURA,BANKURA,23.24,87.07,9.5,9.2,9.8,9.6,9.3,8.9,8.6,8.3,8.1,7.9,7.7,7.3,7.1,6.8,6.5,6.2,5.9,5.6,5.4,5.2,1000,400,600,40,1005,405,600,40,1010,410,600,41,1015,415,600,41,1020,420,600,41,1025,425,600,41,1030,430,600,42,1035,435,600,42,1040,440,600,42,1045,445,600,43,31340,13840,17500,44,31600,14000,17600,44,31900,14200,17700,45,5.0,4.8,4.8,4.6,4.6,4.4
25276,BIHAR,BHAGALPUR,BHAGALPUR,25.24,86.97,7.1,6.8,7.4,7.2,6.9,6.5,6.2,5.9,5.7,5.5,5.3,5.1,4.8,4.5,4.2,3.9,3.6,3.3,3.1,2.9,1300,600,700,46,1305,605,700,46,1310,610,700,47,1315,615,700,47,1320,620,700,47,1325,625,700,47,1330,630,700,47,1335,635,700,48,1340,640,700,48,1345,645,700,48,33890,14780,19110,44,34200,14900,19300,44,34500,15100,19400,44,2.7,2.5,2.5,2.3,2.3,2.1
25277,ODISHA,PURI,PURI,19.81,85.83,3.8,3.5,4.1,3.9,3.7,3.3,3.1,2.8,2.6,2.4,2.2,1.9,1.7,1.5,1.3,1.1,0.9,0.7,0.5,0.3,950,400,550,42,955,405,550,42,960,410,550,43,965,415,550,43,970,420,550,43,975,425,550,44,980,430,550,44,985,435,550,44,990,440,550,44,995,445,550,45,18780,7490,11290,40,19000,7600,11400,40,19200,7700,11500,40,0.1,-0.1,-0.1,-0.3,-0.3,-0.5
25278,PUNJAB,PATIALA,PATIALA,30.34,76.38,34.1,33.5,34.8,34.2,33.8,33.1,32.5,32.1,31.8,31.5,31.1,30.8,30.5,30.2,29.9,29.6,29.3,29.1,28.8,28.6,1200,1800,-600,150,1210,1815,-605,150,1220,1830,-610,150,1230,1845,-615,150,1240,1860,-620,150,1250,1875,-625,150,1260,1890,-630,150,1270,1905,-635,150,1280,1920,-640,150,1290,1935,-645,150,24150,35980,-11830,149,24400,36300,-11900,149,24600,36700,-12100,149,28.4,28.2,28.2,28.0,28.0,27.8
25279,HARYANA,ROHTAK,ROHTAK,28.9,76.57,20.1,19.8,20.4,20.2,19.9,19.5,19.2,18.9,18.7,18.5,18.3,18.1,17.8,17.5,17.2,16.9,16.6,16.3,16.1,15.9,700,900,-200,129,705,910,-205,129,710,920,-210,129,715,930,-215,130,720,940,-220,130,725,950,-225,131,730,960,-230,131,735,970,-235,132,740,980,-240,132,745,990,-245,133,11130,15350,-4220,138,11200,15500,-4300,138,11300,15600,-4300,138,15.7,15.5,15.5,15.3,15.3,15.1
25280,KERALA,KANNUR,KANNUR,11.87,75.37,4.1,3.8,4.4,4.2,3.9,3.5,3.2,2.9,2.7,2.5,2.3,2.1,1.8,1.5,1.2,0.9,0.6,0.3,0.1,-0.2,1200,550,650,46,1205,555,650,46,1210,560,650,46,1215,565,650,46,1220,570,650,47,1225,575,650,47,1230,580,650,47,1235,585,650,47,1240,590,650,48,1245,595,650,48,5950,2970,2980,50,6010,3000,3010,50,6070,3030,3040,50,-0.4,-0.6,-0.6,-0.8,-0.8,-1.0
25281,MADHYA PRADESH,GWALIOR,GWALIOR,26.22,78.18,22.1,21.8,22.4,22.2,21.9,21.5,21.2,20.9,20.7,20.5,20.3,20.1,19.8,19.5,19.2,18.9,18.6,18.3,18.1,17.9,1300,900,400,69,1310,910,400,69,1320,920,400,70,1330,930,400,70,1340,940,400,70,1350,950,400,70,1360,960,400,71,1370,970,400,71,1380,980,400,71,1390,990,400,71,37150,20170,16980,54,37500,20400,17100,54,37900,20600,17300,54,17.7,17.5,17.5,17.3,17.3,17.1
25282,ASSAM,TINSUKIA,TINSUKIA,27.49,95.35,3.1,2.8,3.4,3.2,2.9,2.5,2.2,1.9,1.7,1.5,1.3,1.1,0.8,0.5,0.2,-0.1,-0.4,-0.7,-0.9,-1.2,1200,300,900,25,1205,302,903,25,1210,304,906,25,1215,306,909,25,1220,308,912,25,1225,310,915,25,1230,312,918,25,1235,314,921,25,1240,316,924,25,1245,318,927,25,28670,2728,25942,10,28950,2755,26195,10,29240,2783,26457,10,-1.4,-1.6,-1.6,-1.8,-1.8,-2.0
25283,CHHATTISGARH,DURG,DURG,21.19,81.28,9.5,9.2,9.8,9.6,9.3,8.9,8.6,8.3,8.1,7.9,7.7,7.3,7.1,6.8,6.5,6.2,5.9,5.6,5.4,5.2,1700,700,1000,41,1710,710,1000,42,1720,720,1000,42,1730,730,1000,42,1740,740,1000,43,1750,750,1000,43,1760,760,1000,43,1770,770,1000,44,1780,780,1000,44,1790,790,1000,44,11570,4695,6875,41,11680,4742,6938,41,11790,4789,7001,41,5.0,4.8,4.8,4.6,4.6,4.4
25284,JHARKHAND,DHANBAD,DHANBAD,23.8,86.44,11.2,10.9,11.5,11.3,11.1,10.8,10.5,10.2,9.9,9.6,9.4,9.1,8.8,8.5,8.2,7.9,7.6,7.3,7.1,6.9,700,200,500,29,705,202,503,29,710,204,506,29,715,206,509,29,720,208,512,29,725,210,515,29,730,212,518,29,735,214,521,29,740,216,524,29,745,218,527,29,6210,1578,4632,25,6270,1594,4676,25,6330,1610,4720,25,6.7,6.5,6.5,6.3,6.3,6.1
25285,UTTARAKHAND,NAINITAL,NAINITAL,29.38,79.45,22.8,22.5,23.1,22.9,22.6,22.2,21.9,21.6,21.4,21.2,21.1,20.8,20.5,20.2,19.9,19.6,19.3,19.1,18.8,18.6,500,150,350,30,502,151,351,30,504,152,352,30,506,153,353,30,508,154,354,30,510,155,355,30,512,156,356,31,514,157,357,31,516,158,358,31,518,159,359,31,3045,1644,1401,54,3075,1660,1415,54,3105,1676,1429,54,18.4,18.2,18.2,18.0,18.0,17.8
25286,HIMACHAL PRADESH,MANDI,MANDI,31.71,76.92,16.5,16.1,16.8,16.6,16.2,15.8,15.5,15.1,14.8,14.5,14.2,13.8,13.5,13.2,12.9,12.6,12.3,12.1,11.8,11.6,600,200,400,33,602,202,400,34,604,204,400,34,606,206,400,34,608,208,400,34,610,210,400,34,612,212,400,35,614,214,400,35,616,216,400,35,618,218,400,35,5060,3930,1130,78,5110,3970,1140,78,5160,4010,1150,78,11.4,11.2,11.2,11.0,11.0,10.8
25287,ANDHRA PRADESH,PRAKASAM,ONGOLE,15.5,80.05,4.5,4.2,4.8,4.6,4.3,3.9,3.6,3.3,3.1,2.9,2.7,2.3,2.1,1.8,1.5,1.2,0.9,0.6,0.4,0.2,2400,1900,500,79,2410,1915,495,79,2420,1930,490,80,2430,1945,485,80,2440,1960,480,80,2450,1975,475,81,2460,1990,470,81,2470,2005,465,81,2480,2020,460,81,2490,2035,455,82,33760,13550,20210,40,34100,13800,20300,40,34500,14000,20500,41,0.0,-0.2,-0.2,-0.4,-0.4,-0.6
25288,TELANGANA,MEDAK,SANGAREDDY,17.62,78.08,18.1,17.8,18.4,18.2,17.9,17.5,17.2,16.9,16.7,16.5,16.3,16.1,15.8,15.5,15.2,14.9,14.6,14.3,14.1,13.9,1300,1000,300,77,1310,1010,300,77,1320,1020,300,77,1330,1030,300,77,1340,1040,300,78,1350,1050,300,78,1360,1060,300,78,1370,1070,300,78,1380,1080,300,78,1390,1090,300,78,15050,9180,5870,61,15200,9300,5900,61,15400,9500,5900,62,13.7,13.5,13.5,13.3,13.3,13.1
25289,TAMIL NADU,ERODE,ERODE,11.34,77.72,14.1,13.8,14.4,14.2,13.9,13.5,13.2,12.9,12.7,12.5,12.3,12.1,11.8,11.5,11.2,10.9,10.6,10.3,10.1,9.9,1400,1100,300,79,1410,1110,300,79,1420,1120,300,79,1430,1130,300,79,1440,1140,300,79,1450,1150,300,79,1460,1160,300,79,1470,1170,300,79,1480,1180,300,79,1490,1190,300,80,22240,16680,5560,75,22500,16800,5700,75,22800,17000,5800,75,9.7,9.5,9.5,9.3,9.3,9.1
25290,KARNATAKA,TUMAKURU,TUMAKURU,13.34,77.1,28.9,28.5,29.2,29.1,28.8,28.5,28.2,27.9,27.7,27.5,27.3,27.1,26.8,26.5,26.2,25.9,25.6,25.3,25.1,24.9,1700,1400,300,82,1710,1410,300,82,1720,1420,300,83,1730,1430,300,83,1740,1440,300,83,1750,1450,300,83,1760,1460,300,83,1770,1470,300,83,1780,1480,300,83,1790,1490,300,83,17500,11990,5510,68,17700,12100,5600,68,17900,12300,5600,69,24.7,24.5,24.5,24.3,24.3,24.1
25291,MAHARASHTRA,BEED,BEED,18.99,75.76,17.1,16.8,17.4,17.2,16.9,16.5,16.2,15.9,15.7,15.5,15.3,15.1,14.8,14.5,14.2,13.9,13.6,13.3,13.1,12.9,1600,1200,400,75,1610,1210,400,75,1620,1220,400,75,1630,1230,400,75,1640,1240,400,76,1650,1250,400,76,1660,1260,400,76,1670,1270,400,76,1680,1280,400,76,1690,1290,400,76,32890,20560,12330,63,33200,20800,12400,63,33500,21000,12500,63,12.7,12.5,12.5,12.3,12.3,12.1
25292,RAJASTHAN,ALWAR,ALWAR,27.57,76.6,60.1,59.5,60.8,60.2,59.8,59.1,58.5,58.1,57.8,57.5,57.1,56.8,56.5,56.2,55.9,55.6,55.3,55.1,54.8,54.6,900,1100,-200,122,905,1110,-205,123,910,1120,-210,123,915,1130,-215,124,920,1140,-220,124,925,1150,-225,124,930,1160,-230,125,935,1170,-235,125,940,1180,-240,126,945,1190,-245,126,14110,18880,-4770,134,14300,19000,-4700,133,14500,19200,-4700,132,54.4,54.2,54.2,54.0,54.0,53.8
25293,UTTAR PRADESH,MORADABAD,MORADABAD,28.83,78.78,16.5,16.1,16.8,16.6,16.2,15.8,15.5,15.1,14.8,14.5,14.2,13.8,13.5,13.2,12.9,12.6,12.3,12.1,11.8,11.6,1700,1300,400,76,1710,1310,400,77,1720,1320,400,77,1730,1330,400,77,1740,1340,400,77,1750,1350,400,77,1760,1360,400,77,1770,1370,400,77,1780,1380,400,78,1790,1390,400,78,76450,54470,21980,71,77200,55000,22200,71,78000,55500,22500,71,11.4,11.2,11.2,11.0,11.0,10.8
25294,WEST BENGAL,MURSHIDABAD,BERHAMPORE,24.1,88.25,10.1,9.8,10.4,10.2,9.9,9.5,9.2,8.9,8.7,8.5,8.3,8.1,7.8,7.5,7.2,6.9,6.6,6.3,6.1,5.9,1400,600,800,43,1405,605,800,43,1410,610,800,43,1415,615,800,43,1420,620,800,43,1425,625,800,43,1430,630,800,44,1435,635,800,44,1440,640,800,44,1445,645,800,45,31340,13840,17500,44,31600,14000,17600,44,31900,14200,17700,45,5.7,5.5,5.5,5.3,5.3,5.1
25295,BIHAR,DARBHANGA,DARBHANGA,26.16,85.9,5.5,5.2,5.8,5.6,5.3,4.9,4.6,4.3,4.1,3.9,3.7,3.3,3.1,2.8,2.5,2.2,1.9,1.6,1.4,1.2,1000,350,650,35,1005,355,650,35,1010,360,650,36,1015,365,650,36,1020,370,650,36,1025,375,650,37,1030,380,650,37,1035,385,650,37,1040,390,650,37,1045,395,650,38,33890,14780,19110,44,34200,14900,19300,44,34500,15100,19400,44,1.0,0.8,0.8,0.6,0.6,0.4
25296,ODISHA,GANJAM,BERHAMPUR,19.31,84.79,7.8,7.5,8.1,7.9,7.6,7.2,6.9,6.6,6.4,6.2,6.1,5.8,5.5,5.2,4.9,4.6,4.3,4.1,3.8,3.6,1000,450,550,45,1005,455,550,45,1010,460,550,45,1015,465,550,46,1020,470,550,46,1025,475,550,46,1030,480,550,47,1035,485,550,47,1040,490,550,47,1045,495,550,47,18780,7490,11290,40,19000,7600,11400,40,19200,7700,11500,40,3.4,3.2,3.2,3.0,3.0,2.8
25297,PUNJAB,FEROZEPUR,FEROZEPUR,30.92,74.6,25.8,25.5,26.1,25.9,25.6,25.2,24.9,24.6,24.3,24.1,23.8,23.5,23.2,22.9,22.6,22.3,22.1,21.8,21.6,21.4,900,1400,-500,156,905,1410,-505,156,910,1420,-510,156,915,1430,-515,156,920,1440,-520,157,925,1450,-525,157,930,1460,-530,157,935,1470,-535,157,940,1480,-540,157,945,1490,-545,157,24150,35980,-11830,149,24400,36300,-11900,149,24600,36700,-12100,149,21.2,21.0,21.0,20.8,20.8,20.6
25298,HARYANA,HISAR,HISAR,29.15,75.72,22.8,22.5,23.1,22.9,22.6,22.2,21.9,21.6,21.4,21.2,21.1,20.8,20.5,20.2,19.9,19.6,19.3,19.1,18.8,18.6,800,1000,-200,125,805,1010,-205,125,810,1020,-210,126,815,1030,-215,126,820,1040,-220,127,825,1050,-225,127,830,1060,-230,128,835,1070,-235,128,840,1080,-240,129,845,1090,-245,129,11130,15350,-4220,138,11200,15500,-4300,138,11300,15600,-4300,138,18.4,18.2,18.2,18.0,18.0,17.8
25299,KERALA,THRISSUR,THRISSUR,10.52,76.21,4.8,4.5,5.1,4.9,4.6,4.2,3.9,3.6,3.4,3.2,3.1,2.8,2.5,2.2,1.9,1.6,1.3,1.1,0.8,0.6,1150,525,625,46,1155,530,625,46,1160,535,625,46,1165,540,625,46,1170,545,625,46,1175,550,625,47,1180,555,625,47,1185,560,625,47,1190,565,625,47,1195,570,625,48,5950,2970,2980,50,6010,3000,3010,50,6070,3030,3040,50,0.4,0.2,0.2,0.0,0.0,-0.2
25300,MADHYA PRADESH,UJJAIN,UJJAIN,23.18,75.78,30.1,29.8,30.4,30.2,29.9,29.5,29.2,28.9,28.7,28.5,28.3,28.1,27.8,27.5,27.2,26.9,26.6,26.3,26.1,25.9,1400,1100,300,79,1410,1110,300,79,1420,1120,300,79,1430,1130,300,79,1440,1140,300,79,1450,1150,300,79,1460,1160,300,79,1470,1170,300,79,1480,1180,300,80,1490,1190,300,80,37150,20170,16980,54,37500,20400,17100,54,37900,20600,17300,54,25.7,25.5,25.5,25.3,25.3,25.1
25301,ASSAM,GOLAGHAT,GOLAGHAT,26.52,93.97,5.1,4.8,5.4,5.2,4.9,4.5,4.2,3.9,3.7,3.5,3.3,3.1,2.8,2.5,2.2,1.9,1.6,1.3,1.1,0.9,1000,220,780,22,1005,222,783,22,1010,224,786,22,1015,226,789,22,1020,228,792,22,1025,230,795,22,1030,232,798,23,1035,234,801,23,1040,236,804,23,1045,238,807,23,28670,2728,25942,10,28950,2755,26195,10,29240,2783,26457,10,0.7,0.5,0.5,0.3,0.3,0.1
25302,CHHATTISGARH,RAJNANDGAON,RAJNANDGAON,21.1,81.03,10.5,10.2,10.8,10.6,10.3,9.9,9.6,9.3,9.1,8.9,8.7,8.3,8.1,7.8,7.5,7.2,6.9,6.6,6.4,6.2,1600,650,950,41,1610,655,955,41,1620,660,960,41,1630,665,965,41,1640,670,970,41,1650,675,975,41,1660,680,980,41,1670,685,985,41,1680,690,990,41,1690,695,995,41,11570,4695,6875,41,11680,4742,6938,41,11790,4789,7001,41,6.0,5.8,5.8,5.6,5.6,5.4
25303,JHARKHAND,BOKARO,CHAS,23.63,86.17,12.5,12.2,12.8,12.6,12.3,11.9,11.6,11.3,11.1,10.9,10.7,10.3,10.1,9.8,9.5,9.2,8.9,8.6,8.4,8.2,650,180,470,28,655,182,473,28,660,184,476,28,665,186,479,28,670,188,482,28,675,190,485,28,680,192,488,28,685,194,491,28,690,196,494,28,695,198,497,28,6210,1578,4632,25,6270,1594,4676,25,6330,1610,4720,25,8.0,7.8,7.8,7.6,7.6,7.4
25304,UTTARAKHAND,UDHAM SINGH NAGAR,RUDRAPUR,28.97,79.4,11.1,10.8,11.4,11.2,10.9,10.5,10.2,9.9,9.7,9.5,9.3,9.1,8.8,8.5,8.2,7.9,7.6,7.3,7.1,6.9,1000,700,300,70,1005,705,300,70,1010,710,300,70,1015,715,300,70,1020,720,300,71,1025,725,300,71,1030,730,300,71,1035,735,300,71,1040,740,300,71,1045,745,300,71,3045,1644,1401,54,3075,1660,1415,54,3105,1676,1429,54,6.7,6.5,6.5,6.3,6.3,6.1
25305,HIMACHAL PRADESH,SOLAN,SOLAN,30.91,77.11,20.1,19.8,20.4,20.2,19.9,19.5,19.2,18.9,18.7,18.5,18.3,18.1,17.8,17.5,17.2,16.9,16.6,16.3,16.1,15.9,400,120,280,30,402,121,281,30,404,122,282,30,406,123,283,30,408,124,284,30,410,125,285,30,412,126,286,31,414,127,287,31,416,128,288,31,418,129,289,31,5060,3930,1130,78,5110,3970,1140,78,5160,4010,1150,78,15.7,15.5,15.5,15.3,15.3,15.1
25306,ANDHRA PRADESH,NELLORE,NELLORE,14.44,79.98,2.5,2.2,2.8,2.6,2.3,1.9,1.6,1.3,1.1,0.9,0.7,0.3,0.1,-0.2,-0.5,-0.8,-1.1,-1.4,-1.6,-1.8,2700,2000,700,74,2710,2015,695,74,2720,2030,690,75,2730,2045,685,75,2740,2060,680,75,2750,2075,675,75,2760,2090,670,76,2770,2105,665,76,2780,2120,660,76,2790,2135,655,77,33760,13550,20210,40,34100,13800,20300,40,34500,14000,20500,41,-2.0,-2.2,-2.2,-2.4,-2.4,-2.6
25307,TELANGANA,MAHABUBNAGAR,MAHABUBNAGAR,16.74,77.99,14.1,13.8,14.4,14.2,13.9,13.5,13.2,12.9,12.7,12.5,12.3,12.1,11.8,11.5,11.2,10.9,10.6,10.3,10.1,9.9,1500,1200,300,80,1510,1210,300,80,1520,1220,300,80,1530,1230,300,80,1540,1240,300,81,1550,1250,300,81,1560,1260,300,81,1570,1270,300,81,1580,1280,300,81,1590,1290,300,81,15050,9180,5870,61,15200,9300,5900,61,15400,9500,5900,62,9.7,9.5,9.5,9.3,9.3,9.1
25308,TAMIL NADU,THANJAVUR,THANJAVUR,10.78,79.13,3.5,3.2,3.8,3.6,3.3,2.9,2.6,2.3,2.1,1.9,1.7,1.3,1.1,0.8,0.5,0.2,-0.1,-0.4,-0.6,-0.8,2000,1400,600,70,2010,1410,600,70,2020,1420,600,70,2030,1430,600,70,2040,1440,600,71,2050,1450,600,71,2060,1460,600,71,2070,1470,600,71,2080,1480,600,71,2090,1490,600,71,22240,16680,5560,75,22500,16800,5700,75,22800,17000,5800,75,-1.0,-1.2,-1.2,-1.4,-1.4,-1.6
25309,KARNATAKA,BALLARI,BALLARI,15.14,76.92,40.1,39.5,40.8,40.2,39.8,39.1,38.5,38.1,37.8,37.5,37.1,36.8,36.5,36.2,35.9,35.6,35.3,35.1,34.8,34.6,1300,1200,100,92,1305,1205,100,92,1310,1210,100,92,1315,1215,100,92,1320,1220,100,92,1325,1225,100,92,1330,1230,100,92,1335,1235,100,92,1340,1240,100,93,1345,1245,100,93,17500,11990,5510,68,17700,12100,5600,68,17900,12300,5600,69,34.4,34.2,34.2,34.0,34.0,33.8
25310,MAHARASHTRA,AHMEDNAGAR,AHMEDNAGAR,19.09,74.74,20.5,20.1,20.8,20.6,20.2,19.8,19.5,19.1,18.8,18.5,18.2,17.8,17.5,17.2,16.9,16.6,16.3,16.1,15.8,15.6,2200,1800,400,82,2210,1810,400,82,2220,1820,400,82,2230,1830,400,82,2240,1840,400,82,2250,1850,400,82,2260,1860,400,82,2270,1870,400,82,2280,1880,400,82,2290,1890,400,83,32890,20560,12330,63,33200,20800,12400,63,33500,21000,12500,63,15.4,15.2,15.2,15.0,15.0,14.8
25311,RAJASTHAN,KOTA,KOTA,25.18,75.83,18.8,18.5,19.1,18.9,18.6,18.2,17.9,17.6,17.4,17.2,17.1,16.8,16.5,16.2,15.9,15.6,15.3,15.1,14.8,14.6,1200,1000,200,83,1210,1010,200,83,1220,1020,200,84,1230,1030,200,84,1240,1040,200,84,1250,1050,200,84,1260,1060,200,84,1270,1070,200,84,1280,1080,200,84,1290,1090,200,84,14110,18880,-4770,134,14300,19000,-4700,133,14500,19200,-4700,132,14.4,14.2,14.2,14.0,14.0,13.8
25312,UTTAR PRADESH,GHAZIABAD,GHAZIABAD,28.67,77.42,32.1,31.8,32.4,32.2,31.9,31.5,31.2,30.9,30.7,30.5,30.3,30.1,29.8,29.5,29.2,28.9,28.6,28.3,28.1,27.9,800,1000,-200,125,805,1010,-205,125,810,1020,-210,126,815,1030,-215,126,820,1040,-220,127,825,1050,-225,127,830,1060,-230,128,835,1070,-235,128,840,1080,-240,129,845,1090,-245,129,76450,54470,21980,71,77200,55000,22200,71,78000,55500,22500,71,27.7,27.5,27.5,27.3,27.3,27.1
25313,WEST BENGAL,PURBA MEDINIPUR,TAMLUK,22.3,87.92,4.8,4.5,5.1,4.9,4.6,4.2,3.9,3.6,3.4,3.2,3.1,2.8,2.5,2.2,1.9,1.6,1.3,1.1,0.8,0.6,1300,500,800,38,1305,505,800,39,1310,510,800,39,1315,515,800,39,1320,520,800,39,1325,525,800,40,1330,530,800,40,1335,535,800,40,1340,540,800,40,1345,545,800,40,31340,13840,17500,44,31600,14000,17600,44,31900,14200,17700,45,0.4,0.2,0.2,0.0,0.0,-0.2
25314,BIHAR,ROHTAS,SASARAM,24.95,84.02,11.1,10.8,11.4,11.2,10.9,10.5,10.2,9.9,9.7,9.5,9.3,9.1,8.8,8.5,8.2,7.9,7.6,7.3,7.1,6.9,1400,650,750,46,1405,655,750,47,1410,660,750,47,1415,665,750,47,1420,670,750,47,1425,675,750,47,1430,680,750,48,1435,685,750,48,1440,690,750,48,1445,695,750,48,33890,14780,19110,44,34200,14900,19300,44,34500,15100,19400,44,6.7,6.5,6.5,6.3,6.3,6.1
25315,ODISHA,BALESHWAR,BALASORE,21.49,86.9,5.8,5.5,6.1,5.9,5.7,5.3,5.1,4.8,4.6,4.4,4.2,3.9,3.7,3.5,3.3,3.1,2.9,2.7,2.5,2.3,900,400,500,44,905,405,500,45,910,410,500,45,915,415,500,45,920,420,500,46,925,425,500,46,930,430,500,46,935,435,500,46,940,440,500,47,945,445,500,47,18780,7490,11290,40,19000,7600,11400,40,19200,7700,11500,40,2.1,1.9,1.9,1.7,1.7,1.5
25316,PUNJAB,SANGRUR,SANGRUR,30.25,75.84,28.8,28.5,29.1,28.9,28.6,28.2,27.9,27.6,27.3,27.1,26.8,26.5,26.2,25.9,25.6,25.3,25.1,24.8,24.6,24.4,1000,1600,-600,160,1005,1610,-605,160,1010,1620,-610,160,1015,1630,-615,161,1020,1640,-620,161,1025,1650,-625,161,1030,1660,-630,161,1035,1670,-635,161,1040,1680,-640,162,1045,1690,-645,162,24150,35980,-11830,149,24400,36300,-11900,149,24600,36700,-12100,149,24.2,24.0,24.0,23.8,23.8,23.6
25317,HARYANA,SONIPAT,SONIPAT,28.99,77.02,24.1,23.8,24.4,24.2,23.9,23.5,23.2,22.9,22.7,22.5,22.3,22.1,21.8,21.5,21.2,20.9,20.6,20.3,20.1,19.9,650,950,-300,146,655,960,-305,147,660,970,-310,147,665,980,-315,147,670,990,-320,148,675,1000,-325,148,680,1010,-330,149,685,1020,-335,149,690,1030,-340,149,695,1040,-345,150,11130,15350,-4220,138,11200,15500,-4300,138,11300,15600,-4300,138,19.7,19.5,19.5,19.3,19.3,19.1
25318,KERALA,PALAKKAD,PALAKKAD,10.78,76.65,12.8,12.5,13.1,12.9,12.6,12.2,11.9,11.6,11.4,11.2,11.1,10.8,10.5,10.2,9.9,9.6,9.3,9.1,8.8,8.6,1250,575,675,46,1255,580,675,46,1260,585,675,46,1265,590,675,46,1270,595,675,46,1275,600,675,47,1280,605,675,47,1285,610,675,47,1290,615,675,48,1295,620,675,48,5950,2970,2980,50,6010,3000,3010,50,6070,3030,3040,50,8.4,8.2,8.2,8.0,8.0,7.8
25319,MADHYA PRADESH,REWA,REWA,24.53,81.3,14.8,14.5,15.1,14.9,14.6,14.2,13.9,13.6,13.3,13.1,12.8,12.5,12.2,11.9,11.6,11.3,11.1,10.8,10.6,10.4,1700,850,850,50,1710,860,850,50,1720,870,850,51,1730,880,850,51,1740,890,850,51,1750,900,850,51,1760,910,850,52,1770,920,850,52,1780,930,850,52,1790,940,850,53,37150,20170,16980,54,37500,20400,17100,54,37900,20600,17300,54,10.2,10.0,10.0,9.8,9.8,9.6
25320,ASSAM,NAGAON,NAGAON,26.35,92.68,6.1,5.8,6.4,6.2,5.9,5.5,5.2,4.9,4.7,4.5,4.3,4.1,3.8,3.5,3.2,2.9,2.6,2.3,2.1,1.9,1300,320,980,25,1305,322,983,25,1310,324,986,25,1315,326,989,25,1320,328,992,25,1325,330,995,25,1330,332,998,25,1335,334,1001,25,1340,336,1004,25,1345,338,1007,25,28670,2728,25942,10,28950,2755,26195,10,29240,2783,26457,10,1.7,1.5,1.5,1.3,1.3,1.1
25321,CHHATTISGARH,KORBA,KORBA,22.35,82.68,11.8,11.5,12.1,11.9,11.6,11.2,10.9,10.6,10.4,10.2,10.1,9.8,9.5,9.2,8.9,8.6,8.3,8.1,7.8,7.6,1400,450,950,32,1410,455,955,32,1420,460,960,32,1430,465,965,32,1440,470,970,33,1450,475,975,33,1460,480,980,33,1470,485,985,33,1480,490,990,33,1490,495,995,33,11570,4695,6875,41,11680,4742,6938,41,11790,4789,7001,41,7.4,7.2,7.2,7.0,7.0,6.8
25322,JHARKHAND,HAZARIBAGH,HAZARIBAGH,23.99,85.36,13.1,12.8,13.4,13.2,12.9,12.5,12.2,11.9,11.7,11.5,11.3,11.1,10.8,10.5,10.2,9.9,9.6,9.3,9.1,8.9,750,220,530,29,755,222,533,30,760,224,536,30,765,226,539,30,770,228,542,30,775,230,545,30,780,232,548,30,785,234,551,30,790,236,554,30,795,238,557,30,6210,1578,4632,25,6270,1594,4676,25,6330,1610,4720,25,8.7,8.5,8.5,8.3,8.3,8.1
25323,UTTARAKHAND,PAURI GARHWAL,PAURI,30.15,78.78,28.1,27.8,28.4,28.2,27.9,27.5,27.2,26.9,26.7,26.5,26.3,26.1,25.8,25.5,25.2,24.9,24.6,24.3,24.1,23.9,400,100,300,25,402,101,301,25,404,102,302,25,406,103,303,25,408,104,304,25,410,105,305,26,412,106,306,26,414,107,307,26,416,108,308,26,418,109,309,26,3045,1644,1401,54,3075,1660,1415,54,3105,1676,1429,54,23.7,23.5,23.5,23.3,23.3,23.1
25324,HIMACHAL PRADESH,KULLU,KULLU,31.96,77.11,12.1,11.8,12.4,12.2,11.9,11.5,11.2,10.9,10.7,10.5,10.3,10.1,9.8,9.5,9.2,8.9,8.6,8.3,8.1,7.9,500,180,320,36,502,181,321,36,504,182,322,36,506,183,323,36,508,184,324,36,510,185,325,36,512,186,326,36,514,187,327,36,516,188,328,36,518,189,329,37,5060,3930,1130,78,5110,3970,1140,78,5160,4010,1150,78,7.7,7.5,7.5,7.3,7.3,7.1
25325,ANDHRA PRADESH,KADAPA,KADAPA,14.47,78.82,18.1,17.8,18.4,18.2,17.9,17.5,17.2,16.9,16.7,16.5,16.3,16.1,15.8,15.5,15.2,14.9,14.6,14.3,14.1,13.9,1900,1700,200,89,1905,1708,197,89,1910,1716,194,90,1915,1724,191,90,1920,1732,188,90,1925,1740,185,90,1930,1748,182,91,1935,1756,179,91,1940,1764,176,91,1945,1772,173,91,33760,13550,20210,40,34100,13800,20300,40,34500,14000,20500,41,13.7,13.5,13.5,13.3,13.3,13.1
25326,TELANGANA,RANGAREDDY,VIKARABAD,17.34,77.9,22.1,21.8,22.4,22.2,21.9,21.5,21.2,20.9,20.7,20.5,20.3,20.1,19.8,19.5,19.2,18.9,18.6,18.3,18.1,17.9,1400,1100,300,79,1410,1110,300,79,1420,1120,300,79,1430,1130,300,79,1440,1140,300,79,1450,1150,300,79,1460,1160,300,79,1470,1170,300,80,1480,1180,300,80,1490,1190,300,80,15050,9180,5870,61,15200,9300,5900,61,15400,9500,5900,62,17.7,17.5,17.5,17.3,17.3,17.1
25327,TAMIL NADU,DINDIGUL,DINDIGUL,10.36,77.95,20.1,19.8,20.4,20.2,19.9,19.5,19.2,18.9,18.7,18.5,18.3,18.1,17.8,17.5,17.2,16.9,16.6,16.3,16.1,15.9,1100,850,250,77,1105,855,250,77,1110,860,250,77,1115,865,250,77,1120,870,250,78,1125,875,250,78,1130,880,250,78,1135,885,250,78,1140,890,250,78,1145,895,250,78,22240,16680,5560,75,22500,16800,5700,75,22800,17000,5800,75,15.7,15.5,15.5,15.3,15.3,15.1
25328,KARNATAKA,SHIVAMOGGA,SHIVAMOGGA,13.93,75.57,8.8,8.5,9.1,8.9,8.6,8.2,7.9,7.6,7.4,7.2,7.1,6.8,6.5,6.2,5.9,5.6,5.3,5.1,4.8,4.6,1600,700,900,44,1605,705,900,44,1610,710,900,44,1615,715,900,44,1620,720,900,44,1625,725,900,44,1630,730,900,45,1635,735,900,45,1640,740,900,45,1645,745,900,45,17500,11990,5510,68,17700,12100,5600,68,17900,12300,5600,69,4.4,4.2,4.2,4.0,4.0,3.8
25329,MAHARASHTRA,KOLHAPUR,KOLHAPUR,16.7,74.23,7.5,7.2,7.8,7.6,7.3,6.9,6.6,6.3,6.1,5.9,5.7,5.3,5.1,4.8,4.5,4.2,3.9,3.6,3.4,3.2,1500,600,900,40,1505,605,900,40,1510,610,900,40,1515,615,900,40,1520,620,900,41,1525,625,900,41,1530,630,900,41,1535,635,900,41,1540,640,900,41,1545,645,900,42,32890,20560,12330,63,33200,20800,12400,63,33500,21000,12500,63,3.0,2.8,2.8,2.6,2.6,2.4
25330,RAJASTHAN,SIKAR,SIKAR,27.61,75.14,35.1,34.8,35.4,35.2,34.9,34.5,34.2,33.9,33.7,33.5,33.3,33.1,32.8,32.5,32.2,31.9,31.6,31.3,31.1,30.9,1000,1200,-200,120,1005,1210,-205,120,1010,1220,-210,121,1015,1230,-215,121,1020,1240,-220,122,1025,1250,-225,122,1030,1260,-230,122,1035,1270,-235,123,1040,1280,-240,123,1045,1290,-245,123,14110,18880,-4770,134,14300,19000,-4700,133,14500,19200,-4700,132,30.7,30.5,30.5,30.3,30.3,30.1
25331,UTTAR PRADESH,MEERUT,MEERUT,28.98,77.7,22.8,22.5,23.1,22.9,22.6,22.2,21.9,21.6,21.4,21.2,21.1,20.8,20.5,20.2,19.9,19.6,19.3,19.1,18.8,18.6,1800,1400,400,78,1810,1410,400,78,1820,1420,400,78,1830,1430,400,78,1840,1440,400,78,1850,1450,400,78,1860,1460,400,78,1870,1470,400,78,1880,1480,400,79,1890,1490,400,79,76450,54470,21980,71,77200,55000,22200,71,78000,55500,22500,71,18.4,18.2,18.2,18.0,18.0,17.8
25332,WEST BENGAL,PASCHIM MEDINIPUR,MEDINIPUR,22.42,87.32,8.1,7.8,8.4,8.2,7.9,7.5,7.2,6.9,6.7,6.5,6.3,6.1,5.8,5.5,5.2,4.9,4.6,4.3,4.1,3.9,1500,700,800,47,1505,705,800,47,1510,710,800,47,1515,715,800,47,1520,720,800,47,1525,725,800,47,1530,730,800,48,1535,735,800,48,1540,740,800,48,1545,745,800,48,31340,13840,17500,44,31600,14000,17600,44,31900,14200,17700,45,3.7,3.5,3.5,3.3,3.3,3.1
25333,BIHAR,SAMASTIPUR,SAMASTIPUR,25.86,85.78,6.1,5.8,6.4,6.2,5.9,5.5,5.2,4.9,4.7,4.5,4.3,4.1,3.8,3.5,3.2,2.9,2.6,2.3,2.1,1.9,1150,450,700,39,1155,455,700,39,1160,460,700,40,1165,465,700,40,1170,470,700,40,1175,475,700,40,1180,480,700,41,1185,485,700,41,1190,490,700,41,1195,495,700,41,33890,14780,19110,44,34200,14900,19300,44,34500,15100,19400,44,1.7,1.5,1.5,1.3,1.3,1.1
25334,ODISHA,SUNDARGARH,SUNDARGARH,22.12,84.03,9.1,8.8,9.4,9.2,8.9,8.5,8.2,7.9,7.7,7.5,7.3,7.1,6.8,6.5,6.2,5.9,5.6,5.3,5.1,4.9,1300,550,750,42,1305,555,750,42,1310,560,750,43,1315,565,750,43,1320,570,750,43,1325,575,750,43,1330,580,750,44,1335,585,750,44,1340,590,750,44,1345,595,750,44,18780,7490,11290,40,19000,7600,11400,40,19200,7700,11500,40,4.7,4.5,4.5,4.3,4.3,4.1
25335,PUNJAB,MOGA,MOGA,30.8,75.17,30.8,30.5,31.1,30.9,30.6,30.2,29.9,29.6,29.3,29.1,28.8,28.5,28.2,27.9,27.6,27.3,27.1,26.8,26.6,26.4,950,1500,-550,158,955,1510,-555,158,960,1520,-560,158,965,1530,-565,158,970,1540,-570,159,975,1550,-575,159,980,1560,-580,159,985,1570,-585,159,990,1580,-590,160,995,1590,-595,160,24150,35980,-11830,149,24400,36300,-11900,149,24600,36700,-12100,149,26.2,26.0,26.0,25.8,25.8,25.6
25336,HARYANA,JIND,JIND,29.32,76.32,25.8,25.5,26.1,25.9,25.6,25.2,24.9,24.6,24.3,24.1,23.8,23.5,23.2,22.9,22.6,22.3,22.1,21.8,21.6,21.4,750,950,-200,127,755,960,-205,127,760,970,-210,128,765,980,-215,128,770,990,-220,129,775,1000,-225,129,780,1010,-230,130,785,1020,-235,130,790,1030,-240,130,795,1040,-245,131,11130,15350,-4220,138,11200,15500,-4300,138,11300,15600,-4300,138,21.2,21.0,21.0,20.8,20.8,20.6
25337,KERALA,ALAPPUZHA,ALAPPUZHA,9.5,76.33,1.8,1.5,2.1,1.9,1.7,1.3,1.1,0.8,0.6,0.4,0.2,-0.1,-0.3,-0.5,-0.7,-0.9,-1.1,-1.3,-1.5,-1.7,1250,575,675,46,1255,580,675,46,1260,585,675,46,1265,590,675,46,1270,595,675,46,1275,600,675,47,1280,605,675,47,1285,610,675,47,1290,615,675,48,1295,620,675,48,5950,2970,2980,50,6010,3000,3010,50,6070,3030,3040,50,-1.9,-2.1,-2.1,-2.3,-2.3,-2.5
25338,MADHYA PRADESH,SATNA,SATNA,24.58,80.83,16.1,15.8,16.4,16.2,15.9,15.5,15.2,14.9,14.7,14.5,14.3,14.1,13.8,13.5,13.2,12.9,12.6,12.3,12.1,11.9,1650,800,850,48,1660,810,850,49,1670,820,850,49,1680,830,850,49,1690,840,850,50,1700,850,850,50,1710,860,850,50,1720,870,850,51,1730,880,850,51,1740,890,850,51,37150,20170,16980,54,37500,20400,17100,54,37900,20600,17300,54,11.7,11.5,11.5,11.3,11.3,11.1
25339,ASSAM,CACHAR,SILCHAR,24.82,92.8,4.1,3.8,4.4,4.2,3.9,3.5,3.2,2.9,2.7,2.5,2.3,2.1,1.8,1.5,1.2,0.9,0.6,0.3,0.1,-0.2,1400,350,1050,25,1405,352,1053,25,1410,354,1056,25,1415,356,1059,25,1420,358,1062,25,1425,360,1065,25,1430,362,1068,25,1435,364,1071,25,1440,366,1074,25,1445,368,1077,25,28670,2728,25942,10,28950,2755,26195,10,29240,2783,26457,10,-0.4,-0.6,-0.6,-0.8,-0.8,-1.0
25340,CHHATTISGARH,JANJGIR-CHAMPA,JANJGIR,22.02,82.56,8.1,7.8,8.4,8.2,7.9,7.5,7.2,6.9,6.7,6.5,6.3,6.1,5.8,5.5,5.2,4.9,4.6,4.3,4.1,3.9,1450,480,970,33,1460,485,975,33,1470,490,980,33,1480,495,985,33,1490,500,990,34,1500,505,995,34,1510,510,1000,34,1520,515,1005,34,1530,520,1010,34,1540,525,1015,34,11570,4695,6875,41,11680,4742,6938,41,11790,4789,7001,41,3.7,3.5,3.5,3.3,3.3,3.1
25341,JHARKHAND,GIRIDIH,GIRIDIH,24.18,86.3,14.1,13.8,14.4,14.2,13.9,13.5,13.2,12.9,12.7,12.5,12.3,12.1,11.8,11.5,11.2,10.9,10.6,10.3,10.1,9.9,780,230,550,29,785,232,553,30,790,234,556,30,795,236,559,30,800,238,562,30,805,240,565,30,810,242,568,30,815,244,571,30,820,246,574,30,825,248,577,30,6210,1578,4632,25,6270,1594,4676,25,6330,1610,4720,25,9.7,9.5,9.5,9.3,9.3,9.1
25342,UTTARAKHAND,ALMORA,ALMORA,29.59,79.66,24.1,23.8,24.4,24.2,23.9,23.5,23.2,22.9,22.7,22.5,22.3,22.1,21.8,21.5,21.2,20.9,20.6,20.3,20.1,19.9,450,130,320,29,452,131,321,29,454,132,322,29,456,133,323,29,458,134,324,29,460,135,325,29,462,136,326,30,464,137,327,30,466,138,328,30,468,139,329,30,3045,1644,1401,54,3075,1660,1415,54,3105,1676,1429,54,19.7,19.5,19.5,19.3,19.3,19.1
25343,HIMACHAL PRADESH,HAMIRPUR,HAMIRPUR,31.68,76.52,14.8,14.5,15.1,14.9,14.6,14.2,13.9,13.6,13.3,13.1,12.8,12.5,12.2,11.9,11.6,11.3,11.1,10.8,10.6,10.4,550,190,360,35,552,191,361,35,554,192,362,35,556,193,363,35,558,194,364,35,560,195,365,35,562,196,366,35,564,197,367,35,566,198,368,35,568,199,369,35,5060,3930,1130,78,5110,3970,1140,78,5160,4010,1150,78,10.2,10.0,10.0,9.8,9.8,9.6